[{"business_id":"lynRxJIurnxYiaM-595Ngw","name":"Fork & Bottle","address":"1 Liberty Blvd","city":"San Francisco","latitude":40.0557033,"longitude":-75.5268511,"categories":"Cocktail Bars, Food, American (Traditional), Hotels & Travel, Event Planning & Services, Hotels, Breakfast & Brunch, Nightlife, Buffets, Desserts, Bars, Restaurants","created_on":1679740585916,"updated_on":1679740585917,"updated_by":"admin - chinmayi"},{"business_id":"bqbG3zuoy7VnM4G8KBpi5w","name":"The Club at ArrowCreek","address":"2905 Arrowcreek Pkwy","city":"San Francisco","latitude":39.4119905011,"longitude":-119.8097350564,"categories":"Restaurants, Country Clubs, Venues & Event Spaces, Breakfast & Brunch, Arts & Entertainment, Caterers, Golf, Active Life, Event Planning & Services","created_on":1679740585916,"updated_on":1679740585917,"updated_by":"admin - chinmayi"},{"business_id":"BvQ02tI-7gVAfQwHe_U3bA","name":"Taco Bell","address":"80 W Duval Mine Rd","city":"San Francisco","latitude":31.90552,"longitude":-110.98834,"categories":"Breakfast & Brunch, Fast Food, Restaurants, Tex-Mex, Mexican, Tacos","created_on":1679740585916,"updated_on":1679740585917,"updated_by":"admin - chinmayi"},{"business_id":"t4tEL8wPaWoS5WcuilIrxA","name":"Black Eye Take Out","address":"1006 Virginia Ave","city":"San Francisco","latitude":39.7539457,"longitude":-86.1414386,"categories":"Restaurants, Vietnamese, Ramen, Japanese, Sandwiches","created_on":1679740585916,"updated_on":1679740585917,"updated_by":"admin - chinmayi"},{"business_id":"MBlCqWTahlqG6e0re21Mow","name":"Frederick's Steakhouse & Pizzeria","address":"12490 St Charles Rock Rd","city":"San Francisco","latitude":38.7541831,"longitude":-90.4324043,"categories":"Pizza, Steakhouses, Restaurants, American (Traditional)","created_on":1679740585916,"updated_on":1679740585917,"updated_by":"admin - chinmayi"},{"business_id":"L-wv-QK9VoUZX6zUcJwSSw","name":"First Watch","address":"5055 N Oracle Rd","city":"San Francisco","latitude":32.29775,"longitude":-110.9796853,"categories":"Restaurants, Cafes, Breakfast & Brunch, American (Traditional)","created_on":1679740585916,"updated_on":1679740585917,"updated_by":"admin - chinmayi"},{"business_id":"C3GTGVvlJ0DhPxMTxCI3lQ","name":"Waffle House","address":"3565 E Irvington Rd","city":"San Francisco","latitude":32.1636303,"longitude":-110.9162141,"categories":"American (New), Breakfast & Brunch, Restaurants, Diners","created_on":1679740585916,"updated_on":1679740585917,"updated_by":"admin - chinmayi"},{"business_id":"u-wkhjV7CfvGJVY7hGULjw","name":"Hilton New Orleans Riverside","address":"2 Poydras St","city":"San Francisco","latitude":29.9475061742,"longitude":-90.0634539975,"categories":"Event Planning & Services, Hotels & Travel, Hotels, Venues & Event Spaces, Restaurants","created_on":1679740585916,"updated_on":1679740585917,"updated_by":"admin - chinmayi"},{"business_id":"a8eIw8vCk-kIe__G6NUfaA","name":"China Wok","address":"10714 Countryway Blvd","city":"San Francisco","latitude":28.0571712,"longitude":-82.6237785,"categories":"Chinese, Restaurants","created_on":1679740585916,"updated_on":1679740585917,"updated_by":"admin - chinmayi"},{"business_id":"_rPg8AzfdwOhNjYK00X4tA","name":"Mom's Kitchen","address":"1620 Delmar","city":"San Francisco","latitude":38.634207,"longitude":-90.202211,"categories":"Soul Food, Restaurants","created_on":1679740585916,"updated_on":1679740585917,"updated_by":"admin - chinmayi"},{"business_id":"n2PM7rljiYFN8HROzdneeQ","name":"Just Love Coffee Cafe - Brentwood","address":"7010 Executive Center Dr, Ste 106","city":"San Francisco","latitude":36.030074,"longitude":-86.789613,"categories":"Breakfast & Brunch, American (New), Restaurants, Coffee & Tea, Food","created_on":1679740585916,"updated_on":1679740585917,"updated_by":"admin - chinmayi"},{"business_id":"kdXQfrD2U7OrLe_NcylzFw","name":"Denny's","address":"17635 Stony Plain Rd","city":"San Francisco","latitude":53.54019,"longitude":-113.626503,"categories":"Diners, Restaurants, Breakfast & Brunch, American (Traditional)","created_on":1679740585916,"updated_on":1679740585917,"updated_by":"admin - chinmayi"},{"business_id":"EMxg0g788eB2_tUTl3Sxzg","name":"Hungry Howie's Pizza & Subs","address":"1555 East Bay","city":"San Francisco","latitude":27.916169,"longitude":-82.771711,"categories":"Italian, Chicken Wings, Sandwiches, Restaurants, Pizza","created_on":1679740585916,"updated_on":1679740585917,"updated_by":"admin - chinmayi"},{"business_id":"kNzM8e6clShgKUBZRZ1mrw","name":"Freshii","address":"C106-10710 State Rd 54","city":"San Francisco","latitude":28.1924954,"longitude":-82.6379292,"categories":"Vegetarian, Fast Food, Juice Bars & Smoothies, Salad, Restaurants, Food, Ice Cream & Frozen Yogurt, Breakfast & Brunch","created_on":1679740585916,"updated_on":1679740585917,"updated_by":"admin - chinmayi"},{"business_id":"NkO7yOwVCDsB8rWlyZfEUQ","name":"Chipotle Mexican Grill","address":"385 Easton Rd, Ste A","city":"San Francisco","latitude":40.2237149,"longitude":-75.1393514,"categories":"Restaurants, Mexican, Fast Food","created_on":1679740585916,"updated_on":1679740585917,"updated_by":"admin - chinmayi"},{"business_id":"xMCAWCBv6RLo7ketNUWGzw","name":"Panago Pizza","address":"14255 - 23rd Avenue","city":"San Francisco","latitude":53.4536509,"longitude":-113.5677332,"categories":"Pizza, Food Delivery Services, Restaurants, Chicken Wings, Food, Salad","created_on":1679740585916,"updated_on":1679740585917,"updated_by":"admin - chinmayi"},{"business_id":"wHzYlWU7eVhSLXwwZwchJw","name":"Boodles BBQ","address":"10024 Gravois Rd.","city":"San Francisco","latitude":38.550494,"longitude":-90.334458,"categories":"Barbeque, Restaurants","created_on":1679740585916,"updated_on":1679740585917,"updated_by":"admin - chinmayi"},{"business_id":"n7f_JZVgh9asFAahPt8heQ","name":"Panda Express","address":"601 W. Front St.","city":"San Francisco","latitude":43.6129,"longitude":-116.20315,"categories":"Fast Food, Restaurants, Chinese","created_on":1679740585916,"updated_on":1679740585917,"updated_by":"admin - chinmayi"},{"business_id":"Xt0BfrNdzrYxw-SBdq5aXA","name":"Dutch Bros Coffee","address":"2995 S Kino Pkwy","city":"San Francisco","latitude":32.1872778,"longitude":-110.9441367,"categories":"Cafes, Tea Rooms, Coffee & Tea, Restaurants, Juice Bars & Smoothies, Food","created_on":1679740585916,"updated_on":1679740585917,"updated_by":"admin - chinmayi"},{"business_id":"v89VYv_SzQKzl9wFOJM9wA","name":"40th Street Restaurant","address":"3206 N 40th St","city":"San Francisco","latitude":27.9710884,"longitude":-82.4144392,"categories":"Sandwiches, Dominican, Spanish, Caribbean, Restaurants, Cuban, Latin American","created_on":1679740585916,"updated_on":1679740585917,"updated_by":"admin - chinmayi"},{"business_id":"wxlwVtzOMACy-mTccykQWw","name":"Kwan Ming","address":"27607 State Rd 56, Unit 105","city":"San Francisco","latitude":28.186522,"longitude":-82.359935,"categories":"Chinese, Bars, Seafood, Restaurants, Nightlife","created_on":1679740585916,"updated_on":1679740585917,"updated_by":"admin - chinmayi"},{"business_id":"z1sipz951JQRL-1-aJfCmw","name":"District Taco","address":"100 Main St, Ste 130","city":"San Francisco","latitude":40.083968,"longitude":-75.403775146,"categories":"Restaurants, Mexican","created_on":1679740585916,"updated_on":1679740585917,"updated_by":"admin - chinmayi"},{"business_id":"zCRJdX7LsTJre965Vsq9zA","name":"Guido's Steaks","address":"2568 Bristol Pike","city":"San Francisco","latitude":40.0813277,"longitude":-74.9434138,"categories":"Restaurants, Cheesesteaks, Pizza, Sandwiches","created_on":1679740585916,"updated_on":1679740585917,"updated_by":"admin - chinmayi"},{"business_id":"HUopYrsSLxP6QZsSGAIuXg","name":"The Bagel Spot","address":"600 Kings Hwy N","city":"San Francisco","latitude":39.9249291134,"longitude":-74.9996584569,"categories":"Food, Bagels, Restaurants","created_on":1679740585916,"updated_on":1679740585917,"updated_by":"admin - chinmayi"},{"business_id":"lumQFFky9M3na55B4O0S4Q","name":"Aroma Indian Cuisine","address":"401 S Claiborne Ave","city":"San Francisco","latitude":29.9558237,"longitude":-90.0813517,"categories":"Indian, Restaurants","created_on":1679740585916,"updated_on":1679740585917,"updated_by":"admin - chinmayi"},{"business_id":"ebJav941naDgngDP2EIRHw","name":"Panda Express","address":"3849 State St. Space I-58","city":"San Francisco","latitude":34.439041,"longitude":-119.749199,"categories":"Fast Food, Chinese, Restaurants","created_on":1679740585916,"updated_on":1679740585917,"updated_by":"admin - chinmayi"},{"business_id":"I8n5N-GsqvyGG62ug1TrRQ","name":"Bella Milano","address":"455 Regency Park","city":"San Francisco","latitude":38.5792128226,"longitude":-89.9309974368,"categories":"Salad, Gluten-Free, Bars, Pizza, Seafood, Italian, Nightlife, Restaurants, Wine Bars, Steakhouses","created_on":1679740585916,"updated_on":1679740585917,"updated_by":"admin - chinmayi"},{"business_id":"y9Ujj9047UPGTCdAUu2ICw","name":"King Buffet","address":"905 E Lancaster Ave","city":"San Francisco","latitude":40.0182963,"longitude":-75.6865607,"categories":"Buffets, Restaurants, Chinese","created_on":1679740585916,"updated_on":1679740585917,"updated_by":"admin - chinmayi"},{"business_id":"OobW2OCvMpA_Yi0TCqi-Sw","name":"Gomez BBQ","address":"2827 E 10th St","city":"San Francisco","latitude":39.7811714,"longitude":-86.1156737,"categories":"Restaurants, Barbeque, Event Planning & Services, Caterers, Breakfast & Brunch","created_on":1679740585916,"updated_on":1679740585917,"updated_by":"admin - chinmayi"},{"business_id":"xX5X62eyo8OkvmhoI84tjw","name":"P's and Q's","address":"5720 Magazine St","city":"San Francisco","latitude":29.9214119429,"longitude":-90.1183360443,"categories":"Restaurants, Food, Cafes, Bakeries","created_on":1679740585916,"updated_on":1679740585917,"updated_by":"admin - chinmayi"},{"business_id":"aAslC0l5mZB8oJNbld0byA","name":"McGlynns Pub","address":"8 Polly Drummond Shopping Ctr","city":"San Francisco","latitude":39.7186449125,"longitude":-75.7110155281,"categories":"American (Traditional), Nightlife, Restaurants, Sports Bars, Bars, Pubs, Beer Bar","created_on":1679740585916,"updated_on":1679740585917,"updated_by":"admin - chinmayi"},{"business_id":"s3FRhtaNU8dt-mKkLKUQaQ","name":"RuSan's Sushi and Seafood","address":"505 12th Ave S","city":"San Francisco","latitude":36.1518970081,"longitude":-86.7848066755,"categories":"Sushi Bars, Ramen, Food, Beer, Wine & Spirits, Restaurants, Burgers, Japanese, Seafood","created_on":1679740585916,"updated_on":1679740585917,"updated_by":"admin - chinmayi"},{"business_id":"t4kx25BuJ1MOvX3JrETzCg","name":"Brittingham's Pub","address":"640 Germantown Pike","city":"San Francisco","latitude":40.0848049,"longitude":-75.250595,"categories":"Restaurants, Music Venues, American (New), Wine Bars, Nightlife, Arts & Entertainment, Bars, Beer Bar, Pubs","created_on":1679740585916,"updated_on":1679740585917,"updated_by":"admin - chinmayi"},{"business_id":"qM2-52QEchnSC1HwvsXfkg","name":"Rita Ranch Market","address":"8201 S Rita Rd","city":"San Francisco","latitude":32.102409188,"longitude":-110.8006633892,"categories":"Food, Convenience Stores, Restaurants, Grocery, Pizza","created_on":1679740585916,"updated_on":1679740585917,"updated_by":"admin - chinmayi"},{"business_id":"HxkdaR5jecQoALzv-SjKAg","name":"Wendy's","address":"1000 North Hills Blvd.","city":"San Francisco","latitude":39.6042085429,"longitude":-119.836935997,"categories":"Restaurants, Burgers, Fast Food","created_on":1679740585916,"updated_on":1679740585917,"updated_by":"admin - chinmayi"},{"business_id":"Eyry2fIukkWGzoBd7NGWJw","name":"Naruto Sushi","address":"7933 Airline Dr","city":"San Francisco","latitude":29.9793335,"longitude":-90.2225219,"categories":"Sushi Bars, Asian Fusion, Japanese, Restaurants","created_on":1679740585916,"updated_on":1679740585917,"updated_by":"admin - chinmayi"},{"business_id":"Hk077y7AFkrDo9jr3TG59A","name":"Glow Nutrition","address":"3501 Severn Ave, Ste 6","city":"San Francisco","latitude":30.0125748061,"longitude":-90.1582034,"categories":"Health Markets, Vegan, Juice Bars & Smoothies, Food, Gluten-Free, Specialty Food, Restaurants","created_on":1679740585916,"updated_on":1679740585917,"updated_by":"admin - chinmayi"},{"business_id":"-Tnsc_b8dsWuAq1wQugKZA","name":"Mi Tenampa","address":"11915 Pendleton Pike, Ste L","city":"San Francisco","latitude":39.8722939,"longitude":-85.955155,"categories":"Restaurants, Specialty Food, Tex-Mex, Mexican, Latin American, Ethnic Food, Food","created_on":1679740585916,"updated_on":1679740585917,"updated_by":"admin - chinmayi"},{"business_id":"pZOjC3kbUqPJlebeHnkAtQ","name":"La Morena Mexican Grocery Store","address":"14234 Manchester Rd","city":"San Francisco","latitude":38.5925868,"longitude":-90.5037342,"categories":"Restaurants, Grocery, Food, Mexican","created_on":1679740585916,"updated_on":1679740585917,"updated_by":"admin - chinmayi"},{"business_id":"WBI4wpop4Ox0y5lg4GvhnQ","name":"Saigon Cuisine","address":"508 Riverbend Square","city":"San Francisco","latitude":53.4677090386,"longitude":-113.5866594315,"categories":"Restaurants, Vietnamese","created_on":1679740585916,"updated_on":1679740585917,"updated_by":"admin - chinmayi"},{"business_id":"_Vm1wFLSe6kanZV1sQjkOw","name":"Catahoula Hotel","address":"914 Union St","city":"San Francisco","latitude":29.9516963,"longitude":-90.073235,"categories":"Cocktail Bars, Event Planning & Services, Bars, Restaurants, Hotels, Peruvian, Cafes, Nightlife, Hotels & Travel","created_on":1679740585916,"updated_on":1679740585917,"updated_by":"admin - chinmayi"},{"business_id":"zJmp_J8SUNosLxk6borpFg","name":"The Wild Cow","address":"1100 Fatherland St, Ste 104","city":"San Francisco","latitude":36.173823,"longitude":-86.750055,"categories":"American (New), Vegan, Restaurants, Vegetarian","created_on":1679740585916,"updated_on":1679740585917,"updated_by":"admin - chinmayi"},{"business_id":"Tm1-GfbxXnpw6cPO_Vh7jQ","name":"Xilo Mexican","address":"1701 N Franklin St","city":"San Francisco","latitude":27.9597371,"longitude":-82.459973,"categories":"Restaurants, Breakfast & Brunch, Coffee & Tea, Food, Mexican","created_on":1679740585916,"updated_on":1679740585917,"updated_by":"admin - chinmayi"},{"business_id":"HFurEzHw6y5Kh90EMPHP5g","name":"Burger King","address":"233 W Chester Pike","city":"San Francisco","latitude":39.9696511,"longitude":-75.2985606,"categories":"Restaurants, Burgers, Fast Food","created_on":1679740585916,"updated_on":1679740585917,"updated_by":"admin - chinmayi"},{"business_id":"8BRYRyErfJfPkIa8C38YfQ","name":"DOC Haus","address":"6217 Morganford Rd","city":"San Francisco","latitude":38.570466,"longitude":-90.2735395,"categories":"Burgers, Restaurants, Bars, Nightlife, Beer Bar, Pubs","created_on":1679740585916,"updated_on":1679740585917,"updated_by":"admin - chinmayi"},{"business_id":"692Q-P38KNJk1O-sO6lGaA","name":"Wingstop","address":"2106 W Grant Rd","city":"San Francisco","latitude":32.251502851,"longitude":-111.012312404,"categories":"Chicken Wings, Restaurants","created_on":1679740585916,"updated_on":1679740585917,"updated_by":"admin - chinmayi"},{"business_id":"1nXNyhtAS2y-e4O14LJBRQ","name":"Bimini Juice Bar","address":"1815 John F Kennedy Blvd, Fl 1","city":"San Francisco","latitude":39.9544535,"longitude":-75.1704118,"categories":"Wraps, Coffee & Tea, Salad, Restaurants, Juice Bars & Smoothies, Food","created_on":1679740585916,"updated_on":1679740585917,"updated_by":"admin - chinmayi"},{"business_id":"EtkNplbYROY-8nZz0YQbMQ","name":"Roly Poly","address":"3020 Veterans Memorial Blvd","city":"San Francisco","latitude":30.0025945234,"longitude":-90.1534218631,"categories":"Restaurants, Sandwiches","created_on":1679740585916,"updated_on":1679740585917,"updated_by":"admin - chinmayi"},{"business_id":"Z_EDmpv0JkmsjEmpxTAQlQ","name":"china wok","address":"36115 East Lake Rd S","city":"San Francisco","latitude":28.1009464,"longitude":-82.6926183,"categories":"Restaurants, Chinese","created_on":1679740585916,"updated_on":1679740585917,"updated_by":"admin - chinmayi"},{"business_id":"Z9QsWMsrvOyvF77k5YYuzg","name":"Benny Casanova's","address":"3300 Fairmount Ave","city":"San Francisco","latitude":39.9661671579,"longitude":-75.1910782957,"categories":"Pizza, Restaurants, Italian","created_on":1679740585916,"updated_on":1679740585917,"updated_by":"admin - chinmayi"}]